ICAO, latitude, longitude, altitude, yaw, pitch, roll, groundspeed, timestamp
11259137, 37.09678931, -6.73863919, 37.04008102, 3.14122605, -3.14074969, 3.14042521, 6.46576357, 119950
11259137, 37.09678810, -6.73863991, 44.25576401, -3.13171244, 3.06037426, 3.05217505, 5.69212532, 120962
11259137, 37.09678796, -6.73863970, 49.36946106, -3.13942599, 3.10196066, 3.08555222, 4.82778597, 121976
11259137, 37.09678907, -6.73863884, 54.50508499, -3.14077592, 3.11212826, 3.10792661, 5.27368832, 123030
11259137, 37.09678947, -6.73863838, 59.64119339, -3.14132953, 3.11618829, 3.11386490, 4.98800850, 124054
11259137, 37.09678948, -6.73863827, 64.65560913, -3.14128137, 3.11728168, 3.11762834, 5.10919809, 125044
11259137, 37.09678925, -6.73863828, 69.57755280, -3.14143276, 3.11685419, 3.11461401, 5.13603449, 126040
11259137, 37.09678892, -6.73863840, 74.68698120, -3.14096808, 3.11501622, 3.10825133, 5.00937510, 127058
11259137, 37.09678884, -6.73863840, 79.67996216, -3.14063072, 3.11371279, 3.10784841, 4.97096634, 128058
11259137, 37.09678881, -6.73863836, 85.02397156, -3.14100981, 3.11560607, 3.10760784, 4.86401415, 129122
11259137, 37.09678878, -6.73863830, 90.17821503, -3.14049244, 3.11714125, 3.10698605, 4.93320799, 130150
11259137, 37.09678879, -6.73863829, 94.96029663, -3.14068675, 3.12224579, 3.10919046, 5.10814238, 131102
11259137, 37.09678870, -6.73863854, 100.01379395, -3.14115882, 3.11859894, 3.10764217, 4.97241163, 132124
11259137, 37.09678874, -6.73863878, 105.33361053, -3.14109945, 3.11712861, 3.11026955, 5.08698559, 133168
11259137, 37.09678874, -6.73863894, 110.57099915, -3.14114451, 3.11608481, 3.10969281, 4.94750214, 134216
11259137, 37.09678876, -6.73863898, 115.60332489, -3.14046407, 3.11587000, 3.11274958, 5.30567980, 135232
11259137, 37.09678944, -6.73863899, 119.66815948, -2.99964952, 2.94735360, 2.36111307, 1.66381407, 136244
11259137, 37.09681367, -6.73863287, 119.97619629, -3.01912713, 2.98838973, 2.57840919, 4.26449442, 137220
11259137, 37.09685761, -6.73862094, 119.87423706, -3.03788090, 2.99270511, 2.54535151, 4.90372086, 138278
11259137, 37.09690613, -6.73860848, 119.90912628, -3.03068638, 2.98600698, 2.52815247, 5.43916559, 139330
11259137, 37.09695519, -6.73859610, 119.92412567, -3.01960516, 2.97579098, 2.52029276, 5.82105827, 140338
11259137, 37.09700420, -6.73858345, 119.94363403, -3.00989103, 2.96674347, 2.50194931, 6.12723207, 141320
11259137, 37.09705618, -6.73856996, 119.94002533, -3.00492716, 2.96451950, 2.49581718, 6.33383179, 142340
11259137, 37.09710457, -6.73855714, 119.91751099, -3.04412866, 2.98990273, 2.59305692, 5.41096687, 143346
11259137, 37.09714902, -6.73854534, 119.95743561, -3.03585434, 2.98162150, 2.52766490, 5.29930878, 144360
11259137, 37.09719528, -6.73853342, 119.94660950, -3.04353642, 2.98653746, 2.58626223, 5.31880569, 145378
11259137, 37.09723923, -6.73852184, 119.94982147, -3.04666901, 2.98765540, 2.57824874, 5.09326267, 146358
11259137, 37.09728788, -6.73850912, 119.93402863, -3.04735208, 2.98804688, 2.59623432, 5.13956404, 147442
11259137, 37.09733126, -6.73849701, 119.95084381, -3.02046537, 2.90475321, 2.61118960, 4.93162346, 148428
11259137, 37.09737613, -6.73847814, 119.97851562, -2.97582555, 2.85960984, 2.60977101, 4.93031740, 149478
11259137, 37.09741648, -6.73845656, 119.98125458, -2.97158098, 2.86600852, 2.59596729, 4.90428734, 150460
11259137, 37.09745921, -6.73843330, 119.96697998, -2.97789478, 2.87842178, 2.60307264, 5.00058794, 151470
11259137, 37.09749891, -6.73841224, 119.96312714, -2.98142886, 2.88058496, 2.58959866, 4.91962481, 152456
11259137, 37.09754312, -6.73838962, 119.94821167, -2.97923112, 2.87876177, 2.58808231, 5.00590706, 153502
11259137, 37.09758493, -6.73836838, 119.95545197, -2.98220873, 2.87934899, 2.58617043, 4.96197987, 154522
11259137, 37.09762712, -6.73834720, 119.96154785, -2.97400928, 2.86999273, 2.57176733, 5.12319040, 155528
11259137, 37.09767018, -6.73832540, 119.97150421, -2.99038577, 2.88225985, 2.60430837, 4.96449137, 156520
11259137, 37.09771240, -6.73830393, 119.97650146, -2.99016905, 2.88281107, 2.59629560, 4.94838381, 157554
11259137, 37.09775374, -6.73828317, 119.99086761, -2.98053241, 2.87597561, 2.57921124, 5.07765961, 158568
11259137, 37.09779647, -6.73826165, 119.98292542, -2.99577069, 2.86989474, 2.65063572, 5.06011915, 159576
11259137, 37.09782564, -6.73824139, 119.99801636, -0.05152313, 0.11121355, 0.40343902, 2.07797217, 160566
11259137, 37.09781510, -6.73823344, 119.95397186, 0.07477750, -0.15395053, 0.45343846, 2.27166009, 161626
11259137, 37.09778617, -6.73824267, 119.91928864, 0.08729554, -0.08076354, 0.52877194, 2.96624517, 162656
11259137, 37.09774812, -6.73824976, 119.97139740, -0.07558240, 0.20359577, 0.55490869, 3.90656734, 163628
11259137, 37.09770099, -6.73824227, 119.98683167, -0.16609865, 0.24059685, 0.57807505, 4.50682354, 164670
11259137, 37.09765117, -6.73822903, 119.98938751, -0.14330828, 0.17455614, 0.61437923, 5.05362129, 165676
11259137, 37.09759899, -6.73821787, 119.97680664, -0.11663635, 0.15493016, 0.62753999, 5.53040361, 166656
11259137, 37.09754129, -6.73820698, 119.97843170, -0.11858695, 0.15840690, 0.64219642, 5.92797136, 167698
11259137, 37.09748620, -6.73819652, 119.97615814, -0.11997938, 0.15623732, 0.65235627, 6.25494432, 168710
11259137, 37.09742929, -6.73818564, 119.98305511, -0.11927577, 0.14988488, 0.65941107, 6.52764702, 169714
11259137, 37.09737115, -6.73817464, 119.98272705, -0.11577934, 0.14406797, 0.67636341, 6.75293779, 170712
11259137, 37.09731048, -6.73816345, 119.98239136, -0.11134045, 0.13959107, 0.67203188, 6.96859932, 171750
11259137, 37.09725282, -6.73815292, 119.99611664, -0.11287583, 0.13928977, 0.68050504, 7.14105129, 172724
11259137, 37.09719221, -6.73814194, 119.99157715, -0.11237380, 0.13743971, 0.68346238, 7.26556063, 173734
11259137, 37.09713477, -6.73813111, 119.96717072, -0.06725923, 0.11912611, 0.52002650, 5.80308342, 174772
11259137, 37.09709213, -6.73812215, 119.96737671, -0.05870027, 0.09656471, 0.56299144, 5.42869997, 175778
11259137, 37.09704997, -6.73811448, 119.94918060, -0.05773186, 0.09299681, 0.58776903, 5.66425085, 176780
11259137, 37.09700346, -6.73810687, 119.96954346, -0.06264408, 0.10189684, 0.57855612, 5.75671625, 177822
11259137, 37.09695746, -6.73809919, 119.98812866, -0.06678874, 0.10720727, 0.57353407, 5.62104797, 178828
11259137, 37.09691212, -6.73809108, 119.98872375, -0.06478015, 0.10472398, 0.54668778, 5.42387676, 179826
11259137, 37.09686768, -6.73808298, 119.97103882, -0.06487547, 0.10617444, 0.55134660, 5.36129999, 180828
11259137, 37.09682372, -6.73807499, 119.98339081, -0.07088690, 0.11072354, 0.58498567, 5.36171436, 181844
11259137, 37.09677968, -6.73806694, 119.97484589, -0.07840884, 0.11530726, 0.60387838, 5.63644838, 182854
11259137, 37.09673310, -6.73805843, 119.94846344, -0.06981229, 0.10869186, 0.55372047, 5.47264862, 183842
11259137, 37.09668541, -6.73804942, 119.97472382, -0.06402764, 0.10560470, 0.54106981, 5.21612453, 184882
11259137, 37.09664335, -6.73804138, 119.98921204, -0.06351123, 0.10091975, 0.54996347, 5.22288609, 185854
11259137, 37.09659685, -6.73803283, 119.98737335, -0.06479305, 0.10194223, 0.57449269, 5.29952621, 186902
11259137, 37.09655116, -6.73802460, 119.99337006, -0.06185144, 0.10231657, 0.55787611, 5.14930820, 187912
11259137, 37.09650615, -6.73801645, 119.98958588, -0.06226796, 0.10218518, 0.54469144, 5.21427679, 188922
11259137, 37.09646275, -6.73800858, 120.00228119, -0.06138463, 0.10237551, 0.53731960, 5.14972782, 189894
11259137, 37.09641891, -6.73800049, 119.98898315, -0.06764877, 0.10847174, 0.57612062, 5.17166042, 190902
11259137, 37.09637398, -6.73799217, 120.00548553, -0.07107875, 0.10931221, 0.58292150, 5.28201151, 191910
11259137, 37.09632820, -6.73798367, 120.00615692, -0.06539408, 0.10417649, 0.54618627, 5.24771786, 192924
11259137, 37.09628222, -6.73797505, 119.99360657, -0.06334825, 0.10289042, 0.55262697, 5.12330294, 193938
11259137, 37.09623704, -6.73796657, 119.99286652, -0.06167286, 0.10053266, 0.55263096, 5.12535429, 194942
11259137, 37.09619131, -6.73795807, 119.99645233, -0.05631768, 0.09681222, 0.53173751, 4.95556021, 195944
11259137, 37.09614752, -6.73794992, 119.99558258, -0.05613961, 0.09701539, 0.54057980, 4.91642952, 196950
11259137, 37.09610494, -6.73794211, 119.97982788, -0.06119417, 0.10132287, 0.57220036, 4.99901152, 197930
11259137, 37.09605920, -6.73793394, 119.99426270, -0.06384310, 0.10644027, 0.54825985, 5.07887411, 198950
11259137, 37.09601627, -6.73792600, 120.00000763, -0.07031920, 0.10782859, 0.57672220, 5.17739916, 199928
11259137, 37.09597044, -6.73791753, 119.99085236, -0.06857391, 0.10767161, 0.55683428, 5.11963272, 200942
11259137, 37.09592306, -6.73790864, 119.97503662, -0.06286263, 0.10387492, 0.54548651, 4.96392488, 201984
11259137, 37.09587964, -6.73790051, 119.96963501, -0.06035531, 0.09978125, 0.54419416, 4.90168810, 202958
11259137, 37.09583432, -6.73789229, 119.96858215, -0.06088555, 0.10072796, 0.54895306, 5.01836491, 203964
11259137, 37.09578914, -6.73788409, 119.98206329, -0.05890526, 0.10138769, 0.53976560, 4.94861317, 204980
11259137, 37.09574613, -6.73787635, 120.00260925, -0.05786082, 0.09975202, 0.54051667, 4.90646362, 205958
11259137, 37.09570336, -6.73786886, 120.01015472, -0.06704939, 0.10990877, 0.57653636, 5.11236000, 206958
11259137, 37.09565934, -6.73786116, 119.99015045, -0.07224101, 0.11572769, 0.57479382, 5.27139568, 207958
11259137, 37.09561203, -6.73785272, 120.00363159, -0.07407618, 0.11838899, 0.56407434, 5.24952888, 208982
11259137, 37.09556700, -6.73784434, 119.98194122, -0.06761757, 0.11259533, 0.53798944, 5.06321239, 209968
11259137, 37.09552310, -6.73783608, 119.99057770, -0.06575368, 0.11056826, 0.53260309, 5.02333450, 210960
11259137, 37.09547730, -6.73782757, 120.00325775, -0.07160047, 0.11623896, 0.55941439, 5.13718700, 212020
11259137, 37.09543302, -6.73781941, 120.00740814, -0.07366954, 0.11692210, 0.56308353, 5.19636011, 212915
11259137, 37.09538814, -6.73781108, 120.00878906, -0.06966014, 0.11480720, 0.53916621, 5.10490036, 213866
11259137, 37.09534237, -6.73780242, 119.97460938, -0.06731301, 0.11100674, 0.54125148, 5.07572794, 215012
11259137, 37.09529831, -6.73779417, 119.99663544, -0.06897657, 0.11295112, 0.54987764, 5.10649920, 216016
11259137, 37.09525354, -6.73778594, 120.00859833, -0.06996574, 0.11532683, 0.54586661, 5.10351849, 217034
11259137, 37.09520761, -6.73777743, 120.00455475, -0.07245266, 0.11843024, 0.54886287, 5.12896395, 218046
11259137, 37.09516193, -6.73776874, 119.89028168, -0.05289090, 0.05685995, 0.51360047, 4.90376472, 219078
11259137, 37.09513280, -6.73777042, 118.84047699, 3.02478695, -2.82121587, 2.73224449, 1.64405835, 220142
11259137, 37.09514344, -6.73778625, 118.65095520, 3.02924156, -2.95167875, 2.60629559, 2.47860646, 221124
11259137, 37.09517346, -6.73780580, 117.54053497, 2.96207523, -2.66309977, 2.73545980, 3.55516052, 222164
11259137, 37.09520082, -6.73784285, 115.71717834, 2.94605470, -2.58543348, 2.79275656, 4.45248032, 223160
11259137, 37.09522528, -6.73789172, 113.56909180, 2.88358331, -2.64006639, 2.66639376, 4.94093418, 224164
11259137, 37.09525341, -6.73794039, 111.21430206, 2.86638546, -2.62595534, 2.64217472, 5.29833889, 225166
11259137, 37.09528369, -6.73799015, 108.78524017, 2.84169507, -2.58831143, 2.62254310, 5.71825218, 226158
11259137, 37.09531606, -6.73804530, 106.12767792, 2.82432580, -2.58290148, 2.60101843, 6.14016533, 227198
11259137, 37.09534804, -6.73809990, 103.44326019, 2.81629539, -2.58422351, 2.58634830, 6.39617968, 228208
11259137, 37.09538160, -6.73815673, 100.62146759, 2.81406093, -2.58456802, 2.58275175, 6.58777285, 229244
11259137, 37.09541396, -6.73821139, 97.91450500, 2.80973625, -2.58336139, 2.57469153, 6.71073723, 230244
11259137, 37.09544547, -6.73826386, 95.44702148, 2.97305560, -2.75137019, 2.79225636, 5.77034473, 231244
11259137, 37.09547113, -6.73830743, 93.35266113, 2.98847818, -2.73390722, 2.76694512, 5.13437843, 232284
11259137, 37.09549277, -6.73834414, 91.41433716, 2.94464874, -2.68434858, 2.70218611, 5.22540045, 233256
11259137, 37.09551872, -6.73838695, 89.21007538, 2.90843010, -2.64753175, 2.66324639, 5.54282999, 234336
11259137, 37.09554432, -6.73842935, 87.16655731, 2.94803834, -2.69118881, 2.72063828, 5.46061230, 235324
11259137, 37.09557004, -6.73847245, 85.03446198, 2.95821595, -2.69786406, 2.73285174, 5.32097960, 236330
11259137, 37.09559453, -6.73851377, 83.02471924, 2.94826317, -2.68695831, 2.71483278, 5.23232746, 237338
11259137, 37.09561889, -6.73855477, 80.99082184, 2.94473505, -2.68535304, 2.71346664, 5.28073072, 238344
11259137, 37.09564355, -6.73859609, 78.89933014, 2.91791725, -2.64990020, 2.68026805, 5.38191557, 239366
11259137, 37.09566896, -6.73863887, 76.80805969, 2.94568610, -2.68226957, 2.72008181, 5.25774193, 240380
11259137, 37.09569374, -6.73868087, 74.77087402, 2.95175934, -2.69005752, 2.72535372, 5.16668892, 241386
11259137, 37.09571688, -6.73871992, 72.75935364, 2.92139077, -2.64240527, 2.68111968, 5.21263838, 242362
11259137, 37.09574075, -6.73876060, 70.76383972, 2.92925668, -2.67694330, 2.70391011, 5.32914495, 243360
11259137, 37.09576756, -6.73880609, 68.58141327, 2.93653011, -2.67865348, 2.71189785, 5.30529261, 244412
11259137, 37.09579294, -6.73884874, 66.52835846, 2.95890021, -2.69561243, 2.73340750, 5.09324932, 245418
11259137, 37.09581684, -6.73888902, 64.48672485, 2.94791961, -2.68840861, 2.72493815, 5.16537619, 246400
11259137, 37.09584163, -6.73893087, 62.44179153, 2.95679975, -2.69584656, 2.73246121, 5.06312990, 247408
11259137, 37.09586633, -6.73897230, 60.57630539, 3.05529332, -3.01075101, 3.01607513, 4.54252958, 248412
11259137, 37.09589430, -6.73899165, 62.00086975, -3.04313493, 2.88197517, 2.56570148, 4.75252008, 249454
11259137, 37.09593176, -6.73898000, 64.09851837, -2.95950174, 2.83746481, 2.66658831, 5.02335691, 250448
11259137, 37.09596921, -6.73895753, 66.64887238, -2.95378590, 2.87984538, 2.60071993, 5.55354166, 251454
11259137, 37.09601157, -6.73893529, 69.40955353, -2.97673273, 2.92997980, 2.57450676, 5.91268253, 252470
11259137, 37.09605353, -6.73891811, 71.89276886, -3.04710078, 2.98302341, 2.67743301, 5.18574667, 253486
11259137, 37.09609257, -6.73890339, 74.43276978, -3.04550004, 2.96420574, 2.66462398, 5.01421404, 254520
11259137, 37.09612856, -6.73888917, 76.88014984, -3.02958488, 2.94471312, 2.62962580, 5.23332644, 255496
11259137, 37.09616842, -6.73887318, 79.44815826, -3.04120660, 2.96546173, 2.66335702, 5.20762682, 256550
11259137, 37.09620462, -6.73885906, 81.80382538, -3.03781414, 2.95620799, 2.63935566, 5.21953201, 257520
11259137, 37.09624565, -6.73884337, 84.44052124, -3.04587269, 2.96670103, 2.66303253, 5.23704767, 258576
11259137, 37.09628414, -6.73882863, 86.89567566, -3.05365109, 2.97253060, 2.66817260, 5.06645012, 259590
11259137, 37.09632014, -6.73881500, 89.34725189, -3.04783511, 2.96838164, 2.65045238, 5.16565084, 260562
11259137, 37.09635749, -6.73880119, 91.79589844, -3.04454064, 2.96090889, 2.64764929, 5.21210146, 261572
11259137, 37.09639595, -6.73878680, 94.25515747, -3.04621625, 2.96304035, 2.65488887, 5.17589903, 262586
11259137, 37.09643328, -6.73877280, 96.67959595, -3.04130268, 2.95537591, 2.63449240, 5.20209885, 263560
11259137, 37.09647228, -6.73875808, 99.15274811, -3.05007529, 2.96565104, 2.66474819, 5.06490850, 264542
11259137, 37.09651043, -6.73874351, 101.62262726, -3.05213809, 2.96833825, 2.66714478, 4.96938658, 265557
11259137, 37.09654800, -6.73872922, 104.06175232, -3.05409312, 2.97226572, 2.66586876, 4.93891096, 266566
11259137, 37.09658574, -6.73871509, 106.52334595, -3.05441737, 2.97132540, 2.66671681, 4.92353058, 267581
11259137, 37.09662388, -6.73870090, 109.04024506, -3.05064869, 2.96804309, 2.65684867, 5.03247404, 268591
11259137, 37.09666230, -6.73868664, 111.49574280, -3.05482674, 2.97124743, 2.67081404, 4.93227053, 269604
11259137, 37.09670004, -6.73867244, 114.04040527, -3.05165195, 2.96925473, 2.65353966, 4.94797421, 270649
11259137, 37.09673893, -6.73865800, 116.58460999, -3.05060601, 2.97023964, 2.65376186, 4.99561310, 271693
11259137, 37.09677734, -6.73864391, 119.01186371, -3.04903746, 2.96633744, 2.64064097, 4.87617254, 272704
11259137, 37.09681173, -6.73863126, 117.48148346, -0.02522299, 0.14867756, 0.37854189, 6.09979534, 273683
11259137, 37.09681935, -6.73862622, 112.66945648, 0.03053785, -0.08719543, 0.26922807, 4.59664965, 274726
11259137, 37.09680994, -6.73862926, 107.55068970, 0.02583372, -0.08147724, 0.20152640, 5.36486292, 275738
11259137, 37.09680028, -6.73863349, 102.15659332, 0.00495577, -0.03193249, 0.05426950, 5.32542944, 276747
11259137, 37.09679596, -6.73863585, 96.90764618, 0.00020374, -0.00992218, 0.00931098, 5.04863310, 277760
11259137, 37.09679469, -6.73863668, 91.86276245, 0.00020597, -0.00974452, 0.01433197, 4.99110460, 278803
11259137, 37.09679379, -6.73863720, 86.70037842, 0.00005372, -0.00813656, 0.01718189, 5.05937481, 279779
11259137, 37.09679305, -6.73863755, 81.52850342, 0.00024225, -0.00788669, 0.01993744, 5.04968309, 280823
11259137, 37.09679227, -6.73863779, 76.52474976, 0.00023501, -0.00542734, 0.01953257, 5.08828354, 281832
11259137, 37.09679139, -6.73863790, 71.34700012, 0.00007175, -0.00447436, 0.01180030, 5.06654596, 282872
11259137, 37.09679081, -6.73863800, 66.44897461, 0.00017083, -0.00368606, 0.01109681, 5.11739922, 283847
11259137, 37.09679032, -6.73863805, 61.31389999, 0.00027132, -0.00342962, 0.00952415, 5.05113316, 284861
11259137, 37.09678987, -6.73863809, 56.16516876, -0.00005308, -0.00262496, 0.00746959, 5.02229977, 285903
11259137, 37.09678951, -6.73863808, 51.18056488, -0.00001224, 0.00016554, 0.00626575, 5.07986832, 286911
11259137, 37.09678921, -6.73863800, 45.98744965, 0.00024149, 0.00100760, 0.00537940, 5.04036474, 287922
11259137, 37.09678890, -6.73863786, 41.00830460, -0.00000963, -0.00175761, 0.00640113, 5.02359629, 288927
11259137, 37.09678863, -6.73863771, 35.98815536, 0.00053184, -0.00420882, 0.00642409, 5.09420633, 289940
